state,district,year,murder,rape,kidnapping,robbery,theft,riots,dowry_deaths,total_crimes,lat,lng,risk
Andhra Pradesh,Anantapur,2014,134,35,125,30,753,214,25,8376,14.6783221,77.6065039,1
Andhra Pradesh,Chittoor,2014,84,32,38,22,528,134,17,5374,13.325036,79.6480611,1
Andhra Pradesh,Cuddapah,2014,80,28,27,16,638,104,16,5803,14.4956602,78.8349278,1
Andhra Pradesh,East Godavari,2014,64,85,66,24,903,27,7,7630,16.9956639,81.7154378,1
Andhra Pradesh,Guntakal Railway,2014,14,0,0,4,413,1,0,490,15.172825,77.3664764,0
Andhra Pradesh,Guntur,2014,105,49,64,24,711,78,16,6897,16.2915189,80.4541588,1
Andhra Pradesh,Guntur Urban,2014,51,40,84,31,1045,8,12,5798,17.7041832,83.2974867,1
Andhra Pradesh,Krishna,2014,51,80,41,15,521,9,8,7078,16.2135466,81.0277844,1
Andhra Pradesh,Kurnool,2014,118,32,53,28,563,108,12,8398,15.8309251,78.0425373,1
Andhra Pradesh,Nellore,2014,78,58,153,44,1058,84,14,8175,14.4493717,79.9873763,1
Andhra Pradesh,Prakasham,2014,75,50,50,23,617,124,8,6367,16.5014312,80.6031619,1
Andhra Pradesh,Rajahmundry,2014,18,35,15,14,361,16,3,2430,17.0050454,81.7804732,0
Andhra Pradesh,Srikakulam,2014,30,40,33,8,236,17,3,4727,18.2949307,83.8938844,1
Andhra Pradesh,Tirupathi Urban,2014,35,18,24,8,1148,31,13,3651,13.6298381,79.4251464,0
Andhra Pradesh,Vijayawada City,2014,23,64,42,48,2016,2,10,7876,16.5115306,80.6160469,1
Andhra Pradesh,Vijayawada Railway,2014,1,0,3,7,1085,0,2,1223,16.5204153,80.6196802,0
Andhra Pradesh,Visakha Rural,2014,43,38,24,5,179,14,4,3028,17.8147685,83.3649326,0
Andhra Pradesh,Visakhapatnam,2014,38,84,130,46,1358,3,13,7728,17.6935526,83.2921297,1
Andhra Pradesh,Vizianagaram,2014,43,47,27,4,388,13,8,5013,18.1141255,83.4114389,1
Andhra Pradesh,West Godavari,2014,90,146,67,32,1096,26,24,8542,16.6443029,81.5885247,1
Andhra Pradesh,Total,2014,1175,961,1066,433,15617,1013,215,114604,16.5082164,80.6756877,1
Arunachal Pradesh,Anjaw,2014,0,0,1,0,2,1,0,29,28.1166895,96.8198805,0
Arunachal Pradesh,Changlang,2014,9,6,11,5,50,1,0,180,27.2698797,96.0602442,0
Arunachal Pradesh,Dibang Valley,2014,0,1,0,0,0,0,0,4,28.8291044,95.9554096,0
Arunachal Pradesh,Kameng East,2014,4,1,7,4,18,0,0,148,27.557781,93.0753012,0
Arunachal Pradesh,Kameng West,2014,7,0,3,3,21,8,0,140,27.2625165,92.4228984,0
Arunachal Pradesh,Lohit,2014,10,7,25,8,39,3,0,280,28.0350162,96.1713515,0
Arunachal Pradesh,Longding,2014,4,3,9,1,5,0,0,92,26.8794546,95.3155652,0
Arunachal Pradesh,Lower Dibang Valley,2014,2,3,4,1,21,0,0,75,28.2149563,95.878774,0
Arunachal Pradesh,Siang East,2014,5,11,4,3,49,0,0,245,28.0580363,95.3322182,0
Arunachal Pradesh,Siang Upper,2014,1,1,0,0,8,0,0,40,29.1137638,95.3982784,0
Arunachal Pradesh,Siang West,2014,10,6,2,4,29,4,0,249,28.1702349,94.7979711,0
Arunachal Pradesh,Subansiri Lower,2014,4,1,7,10,18,3,0,160,27.5385824,93.815392,0
Arunachal Pradesh,Subansiri Upper,2014,3,5,2,5,33,4,0,234,28.2596054,94.0938106,0
Arunachal Pradesh,Tawang,2014,1,0,0,0,14,0,0,40,27.5879186,91.863733,0
Arunachal Pradesh,Tirap,2014,2,3,10,3,12,0,0,117,27.030169,95.4979175,0
Assam,Barpeta,2014,46,143,379,5,448,306,21,9056,26.345941,91.039708,1
Assam,Baska,2014,31,26,41,16,124,0,4,853,26.6758202,91.3388225,0
Assam,Bongaigaon,2014,17,31,51,12,190,15,4,1789,26.4800126,90.5580387,0
Assam,Cachar,2014,58,81,249,24,756,202,14,5640,24.75864,92.8816648,1
Assam,Chirang,2014,37,29,58,6,95,19,7,863,26.6464231,90.624157,0
Assam,Darrang,2014,33,111,208,17,363,82,11,3901,26.4373482,92.0047145,0
Assam,Dhemaji,2014,18,45,84,15,106,0,3,1068,27.5945155,94.7192098,0
Assam,Dhubri,2014,58,193,420,21,432,531,10,7153,26.132275,90.1249962,1
Assam,Dibrugarh,2014,77,67,163,43,826,12,5,3108,27.4844597,94.9019447,0
Assam,Goalpara,2014,44,108,218,23,266,52,8,2623,26.0491877,90.6001859,0
Assam,Golaghat,2014,88,74,238,41,365,29,7,2932,26.5108262,93.9743686,0
Assam,Guwahati City,2014,84,100,455,247,3095,155,11,12216,26.1805978,91.753943,1
Assam,Hailakandi,2014,24,77,104,3,178,287,4,1940,24.6846916,92.5645836,0
Assam,Jorhat,2014,30,36,94,76,518,7,6,3732,26.7577925,94.2079645,0
Assam,Kamrup,2014,65,77,164,63,727,0,1,2785,26.1468861,91.2227397,0
Assam,Karbi Anglong,2014,38,23,78,10,181,6,0,960,26.0712781,93.4552969,0
Assam,Karimganj,2014,33,75,119,8,199,57,13,2827,24.5828196,92.3725487,0
Assam,Kokrajhar,2014,60,45,106,7,229,10,3,1419,26.4912104,90.1215209,0
Assam,Lakhimpur,2014,40,67,150,7,236,37,4,2872,27.1763356,94.1992932,0
Assam,Morigaon,2014,28,81,174,12,234,130,7,2557,26.2552206,92.3285733,0
Assam,Nagaon,2014,104,187,454,127,735,485,22,8399,26.3313646,92.7524763,1
Assam,Nalbari,2014,27,41,116,114,225,23,0,2122,26.3533632,91.3983662,0
Assam,Sibsagar,2014,80,44,222,42,599,31,6,4236,26.9834936,94.6394226,0
Assam,Sonitpur,2014,110,112,222,27,566,90,5,3906,26.7677707,92.7014089,0
Assam,Tinsukia,2014,90,66,143,45,679,47,3,3309,27.4879722,95.3601855,0
Assam,Udalguri,2014,46,34,73,20,132,18,9,1453,26.7047238,92.0421507,0
Bihar,Araria,2014,53,35,85,28,310,306,17,3898,26.1346459,87.4654062,0
Bihar,Arwal,2014,25,6,26,8,78,82,11,991,25.1812832,84.6596648,0
Bihar,Aurangabad,2014,74,12,86,27,352,250,28,3079,24.8033201,84.4110198,0
Bihar,Bagaha,2014,21,14,76,8,147,123,7,1860,27.0590112,84.2064638,0
Bihar,Banka,2014,59,22,73,19,143,195,23,2505,24.8328273,86.8161114,0
Bihar,Begusarai,2014,121,30,209,60,598,461,28,5196,25.5125411,86.0883392,1
Bihar,Bettiah,2014,75,33,115,11,497,508,39,4712,26.8023,84.5074,1
Bihar,Bhagalpur,2014,102,52,213,42,677,348,20,4763,25.2861354,87.1304229,1
Bihar,Bhojpur,2014,116,32,151,23,520,205,46,5488,25.4501182,84.5635193,1
Bihar,Buxar,2014,56,16,87,32,438,358,24,3284,25.5044834,84.1097525,0
Bihar,Darbhanga,2014,71,50,289,36,585,621,30,5368,26.08299,86.0324951,1
Bihar,Gaya,2014,145,48,248,77,1366,543,63,7232,24.7964355,85.0079563,1
Bihar,Gopalganj,2014,87,14,172,36,276,398,33,3879,26.4211166,84.3739133,0
Bihar,Jamalpur Railway,2014,9,0,4,3,195,1,0,298,25.3150489,86.4926791,0
Bihar,Jamui,2014,61,23,70,33,124,133,21,1699,24.7562514,86.3011128,0
Bihar,Jehanabad,2014,38,10,84,30,215,202,22,1968,25.1529579,85.0065043,0
Bihar,Katihar,2014,70,65,144,33,447,238,14,3415,25.5586421,87.6457196,0
Bihar,Katihar Railway,2014,10,0,3,8,182,4,0,313,25.5405736,87.5615643,0
Bihar,Khagaria,2014,52,14,118,19,165,172,17,2589,25.4930513,86.6982264,0
Bihar,Kishanganj,2014,46,64,122,12,261,171,12,1982,26.2984144,87.9466715,0
Bihar,Lakhisarai,2014,46,10,66,20,181,193,8,1728,25.1543939,86.1744959,0
Bihar,Madhepura,2014,44,10,78,37,185,225,8,2426,25.7806118,86.9364753,0
Bihar,Madhubani,2014,74,41,199,33,410,406,34,5113,26.3503076,86.2296424,1
Bihar,Motihari,2014,146,31,262,25,660,944,75,9490,26.6506888,84.9114654,1
Bihar,Munger,2014,46,11,52,28,199,195,8,1778,25.2202864,86.5161484,0
Bihar,Muzaffarpur,2014,185,44,444,134,2097,659,178,9373,26.1482548,85.3316097,1
Bihar,Nalanda,2014,107,29,207,58,464,328,59,6871,25.1364914,85.4436546,1
Bihar,Naugachia,2014,37,10,54,16,76,84,10,1732,25.3857731,87.0997616,0
Bihar,Nawadah,2014,84,22,94,61,269,338,22,3408,24.8858896,85.5481255,0
Bihar,Patna,2014,317,86,752,177,3952,636,83,19804,25.6093239,85.1235252,1
Bihar,Patna Railway,2014,23,1,8,10,803,5,5,1216,25.6018406,85.1348978,0
Bihar,Purnea,2014,75,66,174,37,449,321,26,5723,25.7773601,87.4731227,1
Bihar,Rohtas,2014,115,22,161,31,726,294,54,5197,24.9394143,84.0197031,1
Bihar,Saharsa,2014,41,14,115,27,289,549,19,3189,25.8330757,86.6143751,0
Bihar,Samastipur,2014,122,38,255,61,567,380,39,5664,25.7747885,85.8672314,1
Bihar,Saran,2014,144,37,249,53,617,442,83,5586,25.9214451,84.7759731,1
Bihar,Sheikhpura,2014,26,5,51,11,113,136,6,1325,25.1250741,85.8160771,0
Bihar,Sheohar,2014,13,8,33,9,89,62,6,778,26.4934234,85.2717561,0
Bihar,Sitamarhi,2014,91,11,220,63,579,345,29,5453,26.5942841,85.500428,1
Bihar,Siwan,2014,103,17,198,57,549,425,64,5003,26.131008,84.3910745,1
Bihar,Supaul,2014,64,32,132,23,274,573,22,3008,26.2768089,86.7959614,0
Bihar,Vaishali,2014,135,28,296,62,1104,603,66,6337,25.7491703,85.3972164,1
Chhattisgarh,Balod,2014,17,34,27,4,110,24,4,1479,20.7277192,81.1446948,0
Chhattisgarh,Balrampur,2014,55,111,21,6,54,11,5,1333,23.6282576,83.4810916,0
Chhattisgarh,Bilaspur,2014,72,94,216,49,488,87,13,4870,22.1638486,82.1365923,1
Chhattisgarh,Dantewara,2014,22,11,11,1,25,9,0,442,18.9080594,81.3557636,0
Chhattisgarh,Dhamtari,2014,20,36,24,4,89,6,3,1300,20.5326259,81.7155987,0
Chhattisgarh,Durg,2014,50,84,243,56,813,44,12,6677,21.1982964,81.4007922,1
Chhattisgarh,Gariyaband,2014,15,42,15,4,45,12,3,948,20.5267561,82.1917217,0
Chhattisgarh,Jagdalpur,2014,45,32,40,5,101,16,1,1580,19.0870758,82.0235715,0
Chhattisgarh,Janjgir,2014,48,64,144,20,243,102,20,3401,22.0090841,82.578896,0
Chhattisgarh,Jashpur,2014,55,86,71,16,75,9,0,1225,22.770251,83.9708013,0
Chhattisgarh,Kabirdham,2014,25,39,84,4,93,14,6,1573,22.1150085,81.2446944,0
Chhattisgarh,Kanker,2014,47,40,47,5,97,22,5,1253,20.2692747,81.4932111,0
Chhattisgarh,Kondagaon,2014,33,21,20,2,33,17,1,782,19.5885769,81.6628742,0
Chhattisgarh,Korba,2014,37,68,53,22,240,33,6,2572,22.5198217,82.6350029,0
Chhattisgarh,Koriya,2014,40,58,85,7,91,28,2,1707,23.476254,82.4776374,0
Chhattisgarh,Mahasamund,2014,22,44,87,9,223,39,10,2469,21.1922846,82.4890263,0
Chhattisgarh,Narayanpur,2014,5,7,9,1,8,0,0,222,19.5842032,81.1136986,0
Chhattisgarh,Raigarh,2014,74,121,96,21,331,81,7,3074,22.2361795,83.3529534,0
Chhattisgarh,Raipur,2014,49,141,265,76,1557,82,3,8306,21.2380912,81.6336993,1
Chhattisgarh,Rajnandgaon,2014,33,57,113,20,264,34,4,3255,21.0684425,80.7970779,0
Chhattisgarh,Sukma,2014,20,5,9,5,10,0,0,240,18.2665423,81.2925234,0
Chhattisgarh,Surajpur,2014,38,50,81,12,248,23,1,1753,23.3577769,82.9761277,0
Goa,North Goa,2014,20,55,93,13,733,95,0,2805,15.6038925,73.9967006,0
Goa,South Goa,2014,14,37,59,19,368,38,0,1549,15.2197327,74.1147213,0
Goa,Total,2014,34,95,152,32,1154,133,0,4466,15.2784811,73.9304516,0
Gujarat,Ahmedabad City,2014,82,100,367,261,2589,87,11,15286,23.0215374,72.5800568,1
Gujarat,Ahmedabad Rural,2014,27,18,84,17,221,40,0,4266,22.5809103,72.9784557,0
Gujarat,Amreli,2014,26,7,72,17,93,23,0,1818,21.4176122,71.249609,0
Gujarat,Anand,2014,37,12,73,31,354,37,0,3415,22.5586555,72.9627227,0
Gujarat,Banaskantha,2014,51,56,112,79,389,71,0,4464,24.269387,72.5367513,0
Gujarat,Bharuch,2014,47,42,64,29,406,53,0,2981,21.7080427,72.9956936,0
Gujarat,Bhavnagar,2014,39,17,105,39,361,54,0,3589,21.7718836,72.1416449,0
Gujarat,Botad,2014,13,11,27,4,57,9,0,783,22.0467098,71.6689617,0
Gujarat,Dahod,2014,45,27,96,37,218,32,0,2594,22.9194099,74.1342725,0
Gujarat,Dang,2014,10,4,4,0,12,4,1,283,20.7881719,73.7092033,0
Gujarat,Devbhumi Dwarka,2014,9,3,18,6,47,24,0,1106,22.2475106,68.968244,0
Gujarat,Gandhinagar,2014,20,17,79,61,367,48,0,7451,23.2232877,72.6492267,1
Gujarat,Gir Somnath,2014,17,17,32,20,80,29,1,1405,20.9298181,70.7627578,0
Gujarat,Jamnagar,2014,23,34,60,17,282,47,1,3752,22.4732415,70.0552102,0
Gujarat,Junagadh,2014,13,21,70,25,150,40,0,2497,21.5220416,70.4582458,0
Gujarat,Kheda,2014,22,12,80,5,173,34,0,3614,22.8532503,72.9953586,0
Gujarat,Mahisagar,2014,18,10,25,4,32,11,0,1040,23.1912195,73.6644398,0
Gujarat,Mehsana,2014,24,6,108,66,544,81,0,6587,23.6012628,72.3741516,1
Gujarat,Morbi,2014,31,9,29,6,177,19,3,2332,22.8003959,70.886232,0
Gujarat,Narmada,2014,12,8,15,0,40,10,0,664,21.7392625,73.6262458,0
Gujarat,Navsari,2014,19,15,37,9,227,19,0,1730,20.952407,72.9323831,0
Gujarat,Panchmahal,2014,34,24,69,8,160,23,0,2634,22.6978099,73.5980682,0
Gujarat,Patan,2014,17,25,53,25,261,28,1,2117,23.773753,71.6798581,0
Gujarat,Porbandar,2014,8,8,20,11,57,19,1,913,21.6029751,69.8538067,0
Gujarat,Rajkot City,2014,43,17,99,91,835,61,0,3516,22.3053263,70.8028377,0
Gujarat,Sabarkantha,2014,22,10,37,20,197,26,0,5647,23.8688506,73.013784,1
Gujarat,Surat City,2014,85,94,263,30,1315,40,2,4397,21.2094892,72.8317058,0
Gujarat,Surendranagar,2014,34,22,44,15,232,55,0,2476,22.8251395,71.6209736,0
Gujarat,Tapi,2014,13,15,13,3,112,12,0,986,21.1916567,73.5560631,0
Gujarat,Vadodara City,2014,23,23,93,117,1242,60,1,12651,22.2973142,73.1942567,1
Gujarat,Vadodara Rural,2014,24,11,66,7,158,28,0,2896,22.2367253,73.1802481,0
Gujarat,Valsad,2014,43,26,111,29,567,43,0,3072,20.4321957,73.1409893,0
Haryana,Bhiwani,2014,62,44,102,54,822,219,12,4604,28.7931703,76.1391283,0
Haryana,Faridabad,2014,64,101,384,40,2079,207,20,6000,28.4031478,77.3105561,1
Haryana,Fatehabad,2014,20,27,39,16,300,92,7,2431,29.5359209,75.5752901,0
Haryana,Gurgaon,2014,96,117,348,119,4815,172,19,11444,28.4646148,77.0299194,1
Haryana,Hissar,2014,66,55,73,39,1191,164,14,5608,29.7016253,76.3119463,1
Haryana,Jhajjar,2014,69,56,24,28,427,32,25,2100,28.5964461,76.6505366,0
Haryana,Jind,2014,49,23,82,37,533,150,12,2892,29.3152073,76.314082,0
Haryana,Kaithal,2014,47,33,133,11,352,0,10,1922,29.7996588,76.3989903,0
Haryana,Karnal,2014,53,100,379,24,976,21,17,4047,29.7255766,76.9106924,0
Haryana,Kurukshetra,2014,30,35,61,21,631,0,6,2581,29.9693747,76.8482787,0
Haryana,Mahendergarh,2014,38,24,72,26,445,93,15,2262,28.2726226,76.1493925,0
Haryana,Mewat,2014,33,85,75,27,452,224,5,2414,27.9935177,77.0419634,0
Haryana,Palwal,2014,52,49,97,53,844,243,16,3247,28.0599426,77.3223422,0
Haryana,Panchkula,2014,14,36,146,73,357,0,5,1594,30.6975401,76.8551066,0
Haryana,Panipat,2014,53,64,100,49,1207,110,18,4654,29.3912753,76.9771675,0
Haryana,Rewari,2014,27,41,114,53,670,64,11,2781,28.1956468,76.6165179,0
Haryana,Rohtak,2014,76,68,85,43,984,110,16,3820,28.9010899,76.5801935,0
Haryana,Sirsa,2014,36,49,77,25,543,19,5,3482,29.6063041,74.9036568,0
Haryana,Sonipat,2014,110,60,83,54,940,10,28,4311,28.9953758,77.0233627,0
Haryana,Yamunanagar,2014,45,50,386,31,747,4,7,3347,30.1231349,77.286329,0
Himachal Pradesh,Baddi,2014,13,9,14,3,41,42,0,651,30.9763026,76.7674001,0
Himachal Pradesh,Bilaspur,2014,4,15,46,0,39,36,0,1185,31.3380959,76.7611631,0
Himachal Pradesh,Chamba,2014,8,23,20,1,31,38,0,761,32.6923316,76.1631552,0
Himachal Pradesh,Hamirpur,2014,12,13,18,0,32,14,0,845,31.6539866,76.5403633,0
Himachal Pradesh,Kangra,2014,26,43,32,2,107,78,0,2698,32.0768665,76.2985872,0
Himachal Pradesh,Kinnaur,2014,2,10,5,1,11,6,0,211,31.593013,78.3281417,0
Himachal Pradesh,Kullu,2014,9,16,24,0,49,26,0,914,31.9578974,77.1089232,0
Himachal Pradesh,Lahaul & Spiti,2014,2,0,1,0,1,0,0,84,32.0934743,78.3837957,0
Himachal Pradesh,Mandi,2014,15,47,46,0,57,51,0,1939,31.6516617,77.0092542,0
Himachal Pradesh,Shimla,2014,18,39,39,6,116,78,0,1957,31.1040393,77.1707923,0
Himachal Pradesh,Sirmaur,2014,6,28,19,2,48,41,0,872,30.6991321,77.4465304,0
Himachal Pradesh,Solan,2014,5,16,24,0,73,30,0,947,30.9077569,77.1023645,0
Himachal Pradesh,Una,2014,9,23,16,1,46,38,1,1083,31.5834642,76.2351452,0
Jammu & Kashmir,Anantnag,2014,9,19,64,0,90,180,0,1307,33.74611,75.1854475,0
Jammu & Kashmir,Awantipora,2014,9,6,19,3,31,15,0,389,33.91891,75.01465,0
Jammu & Kashmir,Bandipora,2014,2,4,40,1,34,65,0,618,34.4232433,74.635965,0
Jammu & Kashmir,Baramulla,2014,2,10,61,11,81,151,0,1110,34.2086903,74.343498,0
Jammu & Kashmir,Budgam,2014,11,9,48,2,78,145,0,1026,33.9098746,74.6270357,0
Jammu & Kashmir,Crime Jammu,2014,0,0,0,0,0,0,0,14,34.0714255,74.8032176,0
Jammu & Kashmir,Crime Srinagar,2014,1,1,0,0,0,0,0,43,34.0714255,74.8032176,0
Jammu & Kashmir,Doda,2014,3,23,16,0,44,3,0,667,33.13261,75.5890079,0
Jammu & Kashmir,Ganderbal,2014,2,0,20,0,26,50,0,473,34.2889322,75.0407983,0
Jammu & Kashmir,Handwara,2014,3,3,26,2,44,53,0,562,34.3993139,74.2827396,0
Jammu & Kashmir,Jammu,2014,21,68,73,6,399,71,4,4238,32.7185614,74.8580917,0
Jammu & Kashmir,Kargil,2014,1,2,2,0,3,11,0,105,32.7045476,74.871206,0
Jammu & Kashmir,Kathua,2014,13,18,36,0,69,39,1,1289,32.3901836,75.5251452,0
Jammu & Kashmir,Kishtwar,2014,0,6,18,0,21,2,0,388,33.3107908,75.7694213,0
Jammu & Kashmir,Kulgam,2014,4,7,44,12,48,78,0,856,33.6446899,75.0188432,0
Jammu & Kashmir,Kupwara,2014,7,8,42,0,34,159,0,710,34.5140696,74.191367,0
Jammu & Kashmir,Leh,2014,1,6,1,0,8,4,0,166,34.1664372,74.808529,0
Jammu & Kashmir,Poonch,2014,8,13,36,0,30,85,0,842,33.7670004,74.0957143,0
Jammu & Kashmir,Pulwama,2014,5,7,21,5,20,63,0,354,33.87836,74.899965,0
Jammu & Kashmir,Railways Jammu,2014,1,0,0,0,7,0,0,16,32.7067837,74.8806455,0
Jammu & Kashmir,Rajouri,2014,18,39,62,1,56,34,0,1751,33.3772495,74.3132332,0
Jammu & Kashmir,Ramban,2014,3,8,23,0,41,2,0,674,33.2116371,75.2050989,0
Jammu & Kashmir,Reasi,2014,1,16,29,0,34,28,0,753,33.0691032,74.8378698,0
Jammu & Kashmir,Samba,2014,4,7,12,1,33,34,0,653,32.5759118,75.1203446,0
Jammu & Kashmir,Shopian,2014,5,1,37,6,49,74,0,501,33.718807,74.8333311,0
Jammu & Kashmir,Sopore,2014,9,8,40,3,62,45,0,634,34.2850498,74.4639353,0
Jammu & Kashmir,Srinagar,2014,5,12,71,36,375,130,0,2533,34.0747444,74.8204443,0
Jammu & Kashmir,Udhampur,2014,8,30,19,0,54,3,0,1157,32.9219726,75.1331482,0
Jharkhand,Bokaro,2014,43,63,97,41,752,136,18,3145,23.699128,85.9910689,0
Jharkhand,Chaibasa,2014,120,54,46,16,163,0,2,954,22.5483518,85.8188876,0
Jharkhand,Chatra,2014,59,18,37,8,141,86,62,1284,24.1062317,84.8623379,0
Jharkhand,Deoghar,2014,43,25,63,17,343,91,28,2300,24.4898318,86.6990182,0
Jharkhand,Dhanbad,2014,79,54,155,48,1052,225,28,4929,23.7952809,86.4309638,1
Jharkhand,Dhanbad Railway,2014,13,0,5,7,221,0,2,365,23.7886205,86.4315269,0
Jharkhand,Dumka,2014,59,39,31,5,239,62,11,1592,24.2677937,87.2485495,0
Jharkhand,Garhwa,2014,67,50,90,30,154,143,25,2582,24.053577,83.6526818,0
Jharkhand,Giridih,2014,72,58,91,35,284,199,40,3491,24.3314547,86.1548117,0
Jharkhand,Godda,2014,50,34,61,6,147,74,3,1710,24.8645886,87.2984838,0
Jharkhand,Gumla,2014,187,67,45,34,140,13,1,1200,23.1603759,84.4599565,0
Jharkhand,Hazaribagh,2014,60,52,110,25,459,97,23,3039,24.0866962,85.4912231,0
Jharkhand,Jamshedpur,2014,100,55,82,43,909,99,13,3985,22.8015194,86.2029579,0
Jharkhand,Jamtara,2014,18,27,28,6,123,111,10,1032,23.9801639,86.9243637,0
Jharkhand,Khunti,2014,84,7,16,19,38,36,2,419,22.9281801,85.2814475,0
Jharkhand,Koderma,2014,25,15,41,11,125,78,16,1344,24.4931239,85.5560811,0
Jharkhand,Latehar,2014,41,25,37,9,107,46,8,859,23.6880057,84.4969551,0
Jharkhand,Pakur,2014,30,55,18,5,74,58,1,839,24.5325909,87.593232,0
Jharkhand,Palamu,2014,77,44,68,43,203,122,19,2556,24.2212983,84.1725565,0
Jharkhand,Ramgarh,2014,40,48,60,10,298,103,11,1488,23.693479,85.5215989,0
Jharkhand,Ranchi,2014,133,75,81,50,518,90,13,2447,23.3700501,85.3250387,0
Jharkhand,Sahebganj,2014,72,87,68,9,116,69,4,1522,25.0320437,87.691764,0
Jharkhand,Saraikela,2014,58,31,41,11,207,18,7,1108,22.7464225,85.9168929,0
Jharkhand,Simdega,2014,77,24,15,16,40,14,1,421,22.5904573,84.5464805,0
Karnataka,Bagalkot,2014,39,22,25,17,161,208,4,2131,16.1793224,75.6999315,0
Karnataka,Bengaluru City,2014,241,104,708,1067,11455,388,57,31892,13.0222347,77.5671832,1
Karnataka,Bengaluru District,2014,78,60,83,145,667,248,22,5567,13.0222347,77.5671832,1
Karnataka,Belagavi District,2014,75,59,47,40,326,447,4,4851,16.1587846,74.888862,1
Karnataka,Ballari,2014,58,48,20,49,380,233,12,3304,15.3483166,76.8054883,0
Karnataka,Bidar,2014,44,33,52,38,250,227,10,4333,18.0207297,77.2487204,0
Karnataka,Vijayapura,2014,64,45,43,48,151,276,7,2931,16.814415,75.8933856,0
Karnataka,Chikkaballapura,2014,32,36,27,21,231,181,10,2405,13.5897941,77.778793,0
Karnataka,Chamarajnagar,2014,28,11,19,7,138,87,5,1607,11.8073312,76.6923569,0
Karnataka,Chikkamagaluru,2014,39,30,38,34,215,97,5,2878,13.4058699,75.638758,0
Karnataka,Chitradurga,2014,47,24,31,24,266,244,17,3981,14.3049174,76.5296667,0
Karnataka,Dakshina Kannada,2014,26,40,10,19,91,148,1,2087,12.8226434,75.2265036,0
Karnataka,Davanagere,2014,45,40,60,45,439,290,9,3635,14.2558835,75.8303421,0
Karnataka,Dharwad,2014,24,23,8,9,69,127,3,1219,15.3707296,75.1332867,0
Karnataka,Gadag,2014,12,15,11,14,82,92,2,1109,15.416692,75.6815801,0
Karnataka,Kalaburgi,2014,75,53,66,67,307,1,14,4448,16.8999182,77.0567566,0
Karnataka,Hassan,2014,64,63,57,33,344,157,11,5182,13.0301853,76.1744968,1
Karnataka,Haveri,2014,28,40,17,12,253,250,10,2201,14.7180268,75.3656423,0
Karnataka,K.G.F.,2014,13,20,12,19,70,40,1,777,13.0812545,78.3588533,0
Karnataka,Kodagu,2014,33,25,36,9,128,32,1,1824,12.3827332,75.6640715,0
Karnataka,Kolar,2014,35,32,18,42,184,220,8,2188,13.1805066,78.2669329,0
Karnataka,Koppal,2014,26,28,31,12,188,175,4,1883,15.5748238,76.3118494,0
Karnataka,Mandya,2014,41,36,69,61,421,230,11,4984,12.6368939,76.7275477,1
Karnataka,Mangaluru City,2014,30,25,22,57,230,128,1,3039,12.8698101,74.8430082,0
Karnataka,Mysuru City,2014,24,41,52,73,542,72,3,2766,12.3051828,76.6553609,0
Karnataka,Mysuru District,2014,52,41,50,28,496,266,20,4118,12.1968318,76.6120468,0
Karnataka,Raichur,2014,53,55,37,10,209,306,5,3128,16.0547194,76.9003647,0
Karnataka,K.Railways,2014,13,1,4,96,712,0,1,948,15.3552989,75.1459121,0
Karnataka,Ramanagar,2014,73,43,55,81,454,221,12,4249,12.6992524,77.244408,0
Karnataka,Shimoga,2014,50,58,54,60,326,350,8,6043,14.0556503,75.2380553,1
Karnataka,Tumakuru,2014,55,36,34,50,293,197,15,4523,13.4192512,76.8810004,0
Karnataka,Udupi,2014,22,28,19,38,126,79,3,2496,13.5269784,74.8731879,0
Karnataka,Uttara Kannada,2014,21,25,32,29,111,103,0,2783,14.7253795,74.6403389,0
Karnataka,Yadgiri,2014,31,41,22,13,68,122,2,1496,16.7633571,77.1384994,0
Karnataka,Belagavi City,2014,25,22,27,77,315,169,8,2396,15.8572666,74.5069343,0
Karnataka,Total,2014,1636,1324,1933,2516,21019,6520,313,137338,13.0195659,77.5526983,1
Kerala,Alapuzha,2014,19,61,8,54,226,238,0,11033,9.5649344,76.5444815,1
Kerala,Ernakulam Rural,2014,19,71,8,32,363,321,0,20185,10.1000756,76.3574874,1
Kerala,Idukki,2014,20,71,10,26,144,216,2,5264,9.8154785,76.9991599,1
Kerala,Kannur,2014,22,59,15,83,149,745,1,6716,11.8763836,75.3737973,1
Kerala,Kasargod,2014,16,59,8,32,161,422,0,5016,12.4914722,74.9877613,1
Kerala,Kollam Rural,2014,28,81,19,32,161,293,2,7910,8.9989381,76.7732344,1
Kerala,Kottayam,2014,17,75,14,38,235,186,0,17769,9.6287383,76.6455326,1
Kerala,Kozhikode Rural,2014,9,52,10,36,203,408,0,5391,11.2552955,75.795782,1
Kerala,Malappuram,2014,19,103,8,34,310,682,1,18057,11.1068448,76.1099551,1
Kerala,Palakkad,2014,23,88,21,52,308,473,7,14780,10.7873692,76.4742172,1
Kerala,Pathanamthitta,2014,11,63,13,41,228,89,0,8533,9.2780841,76.9737443,1
Kerala,Railways,2014,3,0,2,12,299,7,0,508,9.9464242,76.3008895,0
Kerala,Thrissur Rural,2014,24,94,10,68,263,278,2,20117,10.5214758,76.1899913,1
Kerala,Trivandrum Rural,2014,45,122,19,83,338,416,6,12024,8.6981873,76.8154234,1
Kerala,Wayanadu,2014,9,75,16,21,64,143,0,3182,10.8942004,75.927851,0
Kerala,Crime Branch,2014,22,2,0,0,2,1,3,185,8.4638815,76.9327309,0
Kerala,Total,2014,367,1347,222,869,4700,5820,28,206789,9.9581484,76.2895989,1
Madhya Pradesh,Agar,2014,5,28,18,5,142,20,2,1652,23.7177382,76.0194605,0
Madhya Pradesh,Alirajpur,2014,46,17,17,10,94,9,0,1161,22.2859525,74.3545628,0
Madhya Pradesh,Anuppur,2014,35,70,107,23,187,24,7,2666,23.0346179,81.7510255,0
Madhya Pradesh,Ashok Nagar,2014,29,76,67,15,125,26,12,3366,24.5792434,77.7279725,0
Madhya Pradesh,Balaghat,2014,60,131,187,16,136,41,12,3507,21.8611589,80.3237105,0
Madhya Pradesh,Barwani,2014,44,68,27,7,222,22,4,2857,21.7514248,74.8915957,0
Madhya Pradesh,Betul,2014,63,164,191,19,339,2,9,6822,21.8797472,77.8753651,1
Madhya Pradesh,Bhind,2014,62,78,106,92,418,71,30,4870,26.3518828,78.6863189,1
Madhya Pradesh,Bhopal,2014,83,223,366,113,3010,62,20,16094,23.2584857,77.401989,1
Madhya Pradesh,Bhopal Railway,2014,4,3,25,20,1670,4,0,2067,23.2663138,77.4125257,0
Madhya Pradesh,Burhanpur,2014,20,46,24,5,121,8,5,1958,21.334867,76.3708803,0
Madhya Pradesh,Chhatarpur,2014,44,78,181,35,217,28,22,4463,24.760609,79.6781776,0
Madhya Pradesh,Chhindwara,2014,73,205,231,13,289,42,9,6149,22.2071897,78.798833,1
Madhya Pradesh,Damoh,2014,33,46,109,11,112,10,31,2702,23.7981005,79.5419356,0
Madhya Pradesh,Datia,2014,42,34,71,48,145,17,14,2783,25.9182947,78.6644962,0
Madhya Pradesh,Dewas,2014,64,121,88,14,511,48,10,7426,22.8057498,76.2940408,1
Madhya Pradesh,Dhar,2014,51,138,341,76,857,65,15,7479,22.5786572,75.2258637,1
Madhya Pradesh,Dindori,2014,24,91,75,5,83,11,4,3851,22.9070871,80.8846924,0
Madhya Pradesh,Guna,2014,46,123,173,34,409,52,12,4539,24.5001772,77.2600959,0
Madhya Pradesh,Gwalior,2014,78,158,233,99,1821,108,36,12958,26.2037247,78.1573628,1
Madhya Pradesh,Harda,2014,12,47,79,8,80,10,5,2016,22.2427973,77.1179173,0
Madhya Pradesh,Hoshangabad,2014,59,102,110,42,416,38,6,4870,22.7545538,77.7198249,1
Madhya Pradesh,Indore,2014,115,261,507,317,6530,82,37,23992,22.7203616,75.8681996,1
Madhya Pradesh,Indore Railway,2014,1,4,5,4,434,0,0,552,22.7214768,75.8683783,0
Madhya Pradesh,Jabalpur,2014,92,194,517,137,1025,69,34,12918,23.1701522,79.9324505,1
Madhya Pradesh,Jabalpur Railway,2014,3,4,15,37,909,1,0,1159,23.1675149,79.9491848,0
Madhya Pradesh,Jhabua,2014,33,52,102,45,196,29,0,2990,22.8869652,74.7243249,0
Madhya Pradesh,Katni,2014,35,93,192,15,161,8,18,3670,23.7176393,80.2610181,0
Madhya Pradesh,Khandwa,2014,31,84,127,17,357,39,6,4011,21.9769779,76.5675344,0
Madhya Pradesh,Khargone,2014,42,118,126,18,425,23,43,4533,21.9544729,75.7521248,0
Madhya Pradesh,Mandla,2014,36,64,141,5,57,6,6,2220,22.6871074,80.5816341,0
Madhya Pradesh,Mandsaur,2014,30,90,140,9,368,25,5,5565,24.2628148,75.385692,1
Madhya Pradesh,Morena,2014,43,43,120,69,503,101,30,5944,26.3849794,77.8612721,1
Madhya Pradesh,Narsinghpur,2014,40,113,87,7,145,21,20,3777,22.934556,79.0867849,0
Madhya Pradesh,Neemuch,2014,8,47,41,9,250,17,3,2986,24.6305517,75.1829,0
Madhya Pradesh,Panna,2014,29,41,145,14,73,1,10,2063,24.4498931,80.1462723,0
Madhya Pradesh,Raisen,2014,46,161,90,21,340,36,5,5204,23.2675909,78.1727134,1
Madhya Pradesh,Rajgarh,2014,28,94,112,24,363,41,5,5529,23.8716707,76.7744703,1
Madhya Pradesh,Ratlam,2014,36,69,172,31,339,38,5,4560,23.5022201,74.9551534,0
Madhya Pradesh,Rewa,2014,73,110,272,97,562,44,36,6678,24.7560846,81.3810574,1
Madhya Pradesh,Sagar,2014,75,126,214,23,439,85,35,7674,23.8083076,78.758254,1
Madhya Pradesh,Satna,2014,69,187,451,67,495,68,30,7539,24.6954445,80.7770348,1
Madhya Pradesh,Seoni,2014,29,83,155,5,181,19,9,3484,22.2748109,79.7202522,0
Madhya Pradesh,Shahdol,2014,36,122,200,32,334,26,16,5240,23.3002343,81.364771,1
Madhya Pradesh,Shajapur,2014,20,68,47,15,314,29,7,3754,23.4171002,76.6074794,0
Madhya Pradesh,Sheopur,2014,18,23,36,6,92,26,5,1578,25.7499267,76.9212945,0
Madhya Pradesh,Shivpuri,2014,55,101,172,52,389,63,11,5836,25.3741216,77.8278866,1
Madhya Pradesh,Sidhi,2014,31,40,100,21,107,13,14,3576,24.2112687,81.7000415,0
Madhya Pradesh,Sehore,2014,33,124,149,21,472,39,12,5006,23.1150041,77.0665356,1
Madhya Pradesh,Singrauli,2014,42,88,114,15,231,37,17,3349,24.2431343,82.3827672,0
Madhya Pradesh,Tikamgarh,2014,36,92,79,25,128,35,15,3458,24.8552105,79.0472546,0
Madhya Pradesh,Ujjain,2014,67,126,148,54,1103,66,11,9141,23.1885131,75.7716562,1
Madhya Pradesh,Umaria,2014,17,51,91,12,78,11,2,2172,23.6431837,80.9419078,0
Madhya Pradesh,Vidisha,2014,48,156,140,35,440,34,21,6009,23.8463004,77.8370209,1
Madhya Pradesh,Total,2014,2274,5076,7833,1969,29244,1850,733,272423,22.7531467,75.9044143,1
Maharashtra,Ahmednagar,2014,109,103,121,274,1519,457,13,6957,19.1627725,74.8580243,1
Maharashtra,Akola,2014,52,52,42,108,736,97,5,4433,20.7618123,77.1921157,0
Maharashtra,Amravati Rural,2014,51,103,76,42,1221,43,8,6948,21.4564599,78.2268091,1
Maharashtra,Aurangabad Rural,2014,49,31,37,41,917,264,7,4237,19.8993677,75.3530128,0
Maharashtra,Beed,2014,75,70,72,94,678,266,3,4864,18.9918442,75.909784,1
Maharashtra,Bhandara,2014,20,28,23,25,476,19,3,2003,21.1225869,79.794509,0
Maharashtra,Buldhana,2014,59,57,44,44,669,186,22,4453,20.562845,76.4086986,0
Maharashtra,Chandrapur,2014,51,99,49,41,751,53,2,4441,20.0967555,79.5045475,0
Maharashtra,Dhule,2014,38,35,43,56,366,166,11,2818,21.1305215,74.4900614,0
Maharashtra,Gadchiroli,2014,54,22,8,8,102,9,0,875,19.7590704,80.1622807,0
Maharashtra,Gondia,2014,33,58,26,20,313,13,6,1836,21.455228,80.1962729,0
Maharashtra,Hingoli,2014,27,24,29,19,128,66,4,1761,19.5431164,77.1739432,0
Maharashtra,Jalgaon,2014,80,66,84,129,999,327,1,6531,20.8428827,75.5261246,1
Maharashtra,Jalna,2014,64,33,39,75,582,120,13,3372,19.918833,75.8708599,0
Maharashtra,Kolhapur,2014,64,84,70,236,883,273,8,4942,16.7028412,74.2405329,1
Maharashtra,Latur,2014,74,57,84,79,549,246,4,4070,18.3553347,76.7548997,0
Maharashtra,Mumbai Railway,2014,17,1,17,573,2247,6,0,3141,18.9764347,72.8319417,0
Maharashtra,Nagpur Railway,2014,2,3,2,80,1531,7,0,1768,21.1523731,79.0882365,0
Maharashtra,Nagpur Rural,2014,69,65,35,65,1024,60,4,4564,21.0761096,79.0343582,0
Maharashtra,Nanded,2014,73,43,95,62,511,192,6,4600,19.0942729,77.4832628,0
Maharashtra,Nandurbar,2014,36,25,21,13,157,89,2,1425,21.5141622,74.5405513,0
Maharashtra,Navi Mumbai,2014,51,88,140,411,1447,89,6,5903,19.0308262,73.0198537,1
Maharashtra,Osmanabad,2014,39,43,28,40,427,148,5,2825,18.2822454,76.0588166,0
Maharashtra,Palghar,2014,85,98,114,211,1071,220,1,4692,19.757249,73.0931199,1
Maharashtra,Parbhani,2014,44,38,64,48,488,157,5,3606,19.2901981,76.6026443,0
Maharashtra,Pune Railway,2014,8,2,3,56,543,3,1,676,18.5280562,73.8724211,0
Maharashtra,Pune Rural,2014,153,147,157,251,2592,609,13,10334,18.5435175,73.8220743,1
Maharashtra,Raigad,2014,31,47,41,72,429,146,2,2601,18.4928092,73.138071,0
Maharashtra,Ratnagiri,2014,11,34,19,38,256,66,0,1568,17.2826079,73.4569787,0
Maharashtra,Sangli,2014,50,66,68,63,608,218,6,5171,17.1726928,74.5867654,1
Maharashtra,Satara,2014,67,97,88,234,1254,340,4,6062,17.6361289,74.2982781,1
Maharashtra,Sindhudurg,2014,7,12,10,16,132,24,0,789,16.1357193,73.6522086,0
Maharashtra,Wardha,2014,35,62,37,50,800,41,1,3687,20.8256232,78.6131455,0
Maharashtra,Washim,2014,31,33,32,51,466,94,5,2579,20.2874178,77.2369655,0
Maharashtra,Yavatmal,2014,75,108,157,146,1850,197,12,9951,20.0638677,78.3565663,1
Maharashtra,Total,2014,2670,3438,3793,9466,56283,7760,279,249834,18.9576821,72.821319,1
Manipur,Bishnupur,2014,12,9,11,0,50,6,0,307,24.6267287,93.7600454,0
Manipur,Chandel,2014,4,0,2,0,12,3,0,70,24.3312009,94.0011081,0
Manipur,Churachandpur,2014,13,5,6,0,29,1,0,130,24.3468839,93.6994143,0
Manipur,Imphal East,2014,13,20,27,0,251,15,1,645,24.8328129,94.0166864,0
Manipur,Imphal West,2014,20,20,52,4,475,42,0,1417,24.7590802,93.8617365,0
Manipur,Senapati,2014,5,1,11,3,11,3,0,121,25.3933698,94.1501773,0
Manipur,Tamenglong,2014,4,0,9,0,12,1,0,125,24.9858596,93.5039967,0
Manipur,Thoubal,2014,15,19,61,0,157,29,0,768,24.6386954,93.996871,0
Manipur,Ukhrul,2014,10,1,3,0,4,1,0,58,25.0982654,94.363167,0
Meghalaya,Garo Hills East,2014,7,3,7,6,57,0,0,159,25.5,90.5,0
Meghalaya,Garo Hills North,2014,14,3,26,2,24,0,0,165,25.8619841,90.7017705,0
Meghalaya,Garo Hills South,2014,19,3,28,2,21,3,0,167,25.518425,90.1842421,0
Meghalaya,Garo Hills South West,2014,5,4,4,2,7,0,0,65,25.518425,90.1842421,0
Meghalaya,Garo Hills West,2014,28,11,59,13,72,2,0,532,25.518425,90.1842421,0
Meghalaya,Jaintia Hills West,2014,18,10,9,3,55,0,0,292,25.2849089,92.1064094,0
Meghalaya,Jaintia Hills East,2014,19,11,7,4,68,0,0,281,25.584894,91.8751504,0
Meghalaya,Khasi Hills East,2014,24,14,23,53,399,0,0,1327,25.5649963,91.8841484,0
Meghalaya,Khasi Hills West,2014,11,19,9,3,50,0,0,271,25.5399654,91.4721652,0
Meghalaya,Ri-Bhoi,2014,10,28,7,8,89,3,0,360,25.8764026,91.8567574,0
Mizoram,Aizawl,2014,11,39,2,5,455,0,0,1059,23.7277631,92.7179947,0
Mizoram,Champhai,2014,9,22,1,0,86,0,0,238,23.6317319,93.3493185,0
Mizoram,Kolasib,2014,1,10,2,0,136,0,0,263,24.1905469,92.7136595,0
Mizoram,Lawngtlai,2014,6,9,0,0,26,0,0,98,22.3913377,92.7397189,0
Mizoram,Lunglei,2014,8,14,0,0,52,0,0,175,22.9519972,92.6338827,0
Mizoram,Mamit,2014,1,10,2,0,33,0,0,116,23.7564387,92.4515374,0
Mizoram,Saiha,2014,4,4,0,0,27,0,0,73,22.2876724,93.01336,0
Mizoram,Serchhip,2014,2,12,0,1,37,0,0,98,23.3052514,92.8455124,0
Nagaland,Dimapur,2014,22,12,25,26,215,2,0,512,25.9041379,93.7177609,0
Nagaland,Kiphire,2014,1,1,0,0,2,0,0,13,25.8117088,94.8474036,0
Nagaland,Kohima,2014,3,9,5,6,75,0,0,199,25.6618755,94.1019156,0
Nagaland,Longleng,2014,0,1,0,0,2,0,0,15,26.5839315,94.8045481,0
Nagaland,Mokokchung,2014,5,1,2,2,10,0,0,67,26.4795861,94.5105275,0
Nagaland,Mon,2014,6,1,0,0,10,0,0,39,26.666667,95.0,0
Nagaland,Peren,2014,1,0,0,0,7,0,0,19,25.4499691,93.6001738,0
Nagaland,Phek,2014,9,1,0,3,25,0,0,75,25.6700924,94.3843925,0
Nagaland,Tuensang,2014,0,1,2,0,20,2,0,48,26.2342107,94.741553,0
Nagaland,Wokha,2014,10,0,2,0,29,6,0,90,26.242251,94.1921153,0
Nagaland,Zunheboto,2014,1,3,1,1,23,0,0,80,26.0123803,94.5123719,0
Odisha,Angul,2014,58,44,85,107,548,73,4,2950,21.102538,84.9536825,0
Odisha,Balasore,2014,65,110,231,90,357,60,2,4305,21.5006421,86.919884,0
Odisha,Baragarh,2014,27,56,61,68,199,89,7,1817,21.3335004,83.6190492,0
Odisha,Berhampur,2014,31,30,59,76,237,29,0,1709,21.4930852,86.6327298,0
Odisha,Bhadrak,2014,39,63,116,25,222,45,24,2807,20.9854052,86.5934226,0
Odisha,Bolangir,2014,26,56,130,59,199,64,19,2379,20.7502257,83.2499464,0
Odisha,Boudh,2014,22,24,34,23,35,9,2,596,20.6407463,83.9969704,0
Odisha,Cuttack,2014,40,58,94,63,170,40,27,2594,20.4686,85.8792,0
Odisha,Deogarh,2014,12,32,18,17,72,13,1,901,21.5370786,84.7301184,0
Odisha,Dhenkanal,2014,52,43,68,76,237,64,11,2000,20.8351494,85.6022305,0
Odisha,Gajapati,2014,17,19,22,0,36,32,3,460,19.1966026,84.1930634,0
Odisha,Ganjam,2014,75,85,129,64,153,66,13,2580,19.6090068,84.7080633,0
Odisha,Jagatsinghpur,2014,43,37,83,60,329,70,26,2345,20.2593872,86.1660878,0
Odisha,Jajpur,2014,76,73,123,70,397,83,49,3174,20.8746788,86.1215393,0
Odisha,Jharsuguda,2014,33,42,48,64,217,30,9,1431,21.8019368,83.9713964,0
Odisha,Kalahandi,2014,38,101,190,41,103,75,12,2039,19.8265757,83.0408702,0
Odisha,Kandhamal,2014,28,54,48,14,79,10,4,1089,20.1306939,84.0790476,0
Odisha,Kendrapara,2014,34,48,88,36,107,47,32,2244,20.5475164,86.5296168,0
Odisha,Keonjhar,2014,75,103,107,46,218,51,11,2571,21.5,85.5,0
Odisha,Khurda,2014,40,39,103,63,197,48,22,2291,20.1617378,85.7052429,0
Odisha,Koraput,2014,71,94,73,37,99,61,4,1357,18.7232023,82.6100596,0
Odisha,Malkangiri,2014,33,19,21,9,33,17,4,420,18.2744685,81.9520316,0
Odisha,Mayurbhanj,2014,110,139,135,40,252,39,32,2793,21.9156338,86.3961824,0
Odisha,Nayagarh,2014,33,23,47,51,129,48,7,1487,20.2393683,85.050728,0
Odisha,Nabarangpur,2014,23,73,100,12,56,94,1,1695,19.228896,82.5665715,0
Odisha,Nuapada,2014,14,26,57,20,74,31,5,1175,20.5412657,82.5292352,0
Odisha,Puri,2014,54,68,146,102,449,117,32,4317,19.8076083,85.8252538,0
Odisha,Rayagada,2014,29,59,86,17,105,49,0,1199,19.4426698,83.5873053,0
Odisha,Rourkela,2014,55,73,98,106,488,37,4,2670,22.2309255,84.8678705,0
Odisha,Sambalpur,2014,48,81,98,123,567,74,10,3391,21.5570606,84.1528515,0
Odisha,Sonepur,2014,16,18,27,15,75,22,4,724,20.8453864,83.909083,0
Odisha,Sundargarh,2014,51,49,46,33,158,24,12,1655,22.0605153,83.9359154,0
Odisha,Total,2014,1450,1978,3073,1828,9410,1732,441,74569,19.7984304,85.6654339,1
Punjab,Barnala,2014,15,31,41,1,96,0,0,791,30.3716802,75.5039887,0
Punjab,Batala,2014,22,30,46,3,86,0,3,865,31.8193025,75.1999941,0
Punjab,Bathinda,2014,55,56,67,2,260,0,5,2117,30.1794814,75.0471098,0
Punjab,CP Amritsar,2014,29,34,78,13,324,0,3,1998,31.6356659,74.8787496,0
Punjab,CP Jalandhar,2014,16,49,111,10,498,0,1,2020,31.3323762,75.576889,0
Punjab,CP Ludhiana,2014,73,111,246,23,603,0,5,3546,30.9090157,75.851601,0
Punjab,Faridkot,2014,23,24,23,10,70,0,1,673,30.6014507,74.7950176,0
Punjab,Fatehgarh Sahib,2014,16,26,28,3,89,0,4,920,30.6634042,76.3803,0
Punjab,Fazilka,2014,24,52,32,0,80,0,4,877,30.3198406,74.1217943,0
Punjab,Ferozepur,2014,27,55,23,0,163,0,3,1300,30.6839733,76.3594033,0
Punjab,Gurdaspur,2014,13,26,31,2,80,0,2,781,31.9037264,75.2275587,0
Punjab,Hoshiarpur,2014,32,43,63,8,207,0,7,1637,31.6092942,75.8459754,0
Punjab,Kapurthala,2014,21,29,40,10,132,0,3,1105,31.3856476,75.3053304,0
Punjab,Khanna,2014,20,23,54,8,261,0,3,1132,30.700625,76.2220763,0
Punjab,Mansa,2014,32,22,15,0,52,0,5,793,29.8764133,75.4889564,0
Punjab,Moga,2014,25,29,36,4,147,0,0,1172,30.7877554,75.159359,0
Punjab,Muktsar,2014,29,29,30,0,93,0,1,781,30.4692,74.5182,0
Punjab,Pathankot,2014,9,11,11,1,75,0,4,582,32.3021899,75.6589406,0
Punjab,Ropar,2014,22,21,39,4,114,0,2,1122,30.9688367,76.526088,0
Punjab,Sangrur,2014,42,57,58,3,196,0,7,1935,30.135717,75.8533326,0
Punjab,SAS Nagar,2014,26,59,124,6,433,0,5,2408,30.6904366,76.7116208,0
Punjab,SBS Nagar,2014,15,20,18,7,80,0,2,659,30.8260412,75.1989654,0
Punjab,Tarn Taran,2014,35,29,45,2,107,0,5,1171,31.3212453,74.8416687,0
Rajasthan,Ajmer,2014,45,130,226,46,1155,0,10,9197,26.4691,74.639,1
Rajasthan,Alwar,2014,104,299,373,70,3189,5,33,12742,27.4140049,76.6170387,1
Rajasthan,Banswara,2014,25,146,152,27,186,42,6,2789,23.4915047,74.3502172,0
Rajasthan,Baran,2014,34,67,162,22,449,0,5,4515,24.9208165,76.6821985,0
Rajasthan,Barmer,2014,38,93,57,19,352,3,26,4388,25.5814853,71.1924922,0
Rajasthan,Bharatpur,2014,99,219,290,29,1549,0,36,10231,27.0246959,77.2920116,1
Rajasthan,Bhilwara,2014,35,54,122,22,799,7,8,7353,25.470994,74.6961316,1
Rajasthan,Bikaner,2014,48,75,81,4,347,0,15,5441,28.0159286,73.3171367,1
Rajasthan,Bundi,2014,24,80,145,15,260,5,4,3823,25.4367659,75.7361471,0
Rajasthan,Chittorgarh,2014,33,104,212,41,539,31,2,5435,24.7171578,74.4718129,1
Rajasthan,Churu,2014,35,72,102,11,248,0,7,3847,28.2047781,74.6912996,0
Rajasthan,Dausa,2014,40,37,123,10,1059,11,5,5584,26.8048659,76.4437457,1
Rajasthan,Dholpur,2014,44,78,90,11,480,0,21,4395,26.7010642,77.896749,0
Rajasthan,Dungarpur,2014,31,110,143,23,132,2,13,2678,23.8538893,73.7087177,0
Rajasthan,G.R.P.Ajmer,2014,5,3,14,10,1118,1,1,1313,26.4500951,74.653833,0
Rajasthan,Ganganagar,2014,43,180,149,12,422,0,17,6929,25.9061389,76.4815499,1
Rajasthan,Hanumangarh,2014,67,135,79,12,284,0,11,5021,29.3659533,74.298429,1
Rajasthan,Jaipur Rural,2014,63,80,170,37,766,13,13,6625,26.9206636,75.9740914,1
Rajasthan,Jaipur West,2014,36,92,190,85,1369,3,13,7238,26.9178997,75.7529805,1
Rajasthan,Jaisalmer,2014,12,10,18,12,166,15,5,1478,26.9116615,70.9124888,0
Rajasthan,Jalore,2014,44,43,78,11,263,8,9,2971,25.2093483,72.3178889,0
Rajasthan,Jhalawar,2014,49,138,181,24,473,45,11,4666,24.3132368,76.5221078,0
Rajasthan,Jhunjhunu,2014,38,79,106,15,494,16,12,5277,28.0798944,75.5424211,1
Rajasthan,Jodhpur Rural,2014,21,43,63,73,537,0,6,2693,26.5319605,72.9828941,0
Rajasthan,Karauli,2014,34,49,130,16,702,2,14,4612,26.5158329,77.0565965,0
Rajasthan,Kota City,2014,19,100,187,27,890,0,3,5248,25.1737019,75.8574194,1
Rajasthan,Nagaur,2014,69,102,133,14,472,0,8,5743,26.9873443,73.7389011,1
Rajasthan,Pali,2014,52,107,161,45,420,0,21,6373,25.4552211,73.419389,1
Rajasthan,Rajsamand,2014,17,48,89,24,206,11,6,2790,25.2892459,73.8241077,0
Rajasthan,Sawai Madhopur,2014,23,70,114,15,635,0,0,4212,26.2290186,76.3043561,0
Rajasthan,Sikar,2014,65,79,202,17,876,16,14,6994,27.6624156,75.0279971,1
Rajasthan,Sirohi,2014,41,51,66,11,126,8,4,2342,24.8114047,72.8300257,0
Rajasthan,Tonk,2014,30,52,77,7,371,69,5,4663,26.1223198,75.6632235,0
Rajasthan,Udaipur,2014,90,229,378,124,865,107,8,9868,24.578721,73.6862571,1
Sikkim,East,2014,7,16,17,12,60,24,0,589,27.5858069,88.1101127,0
Sikkim,North,2014,0,2,0,0,13,1,0,52,27.666667,88.5,0
Sikkim,South,2014,2,15,2,1,42,46,0,290,27.333333,88.416667,0
Sikkim,West,2014,3,14,1,0,10,10,0,127,27.9820852,88.6848163,0
Tamil Nadu,Ariyalur,2014,19,6,16,8,64,30,2,1615,11.1530559,79.2585797,0
Tamil Nadu,Chennai,2014,161,65,36,72,1520,118,10,16861,13.0836939,80.270186,1
Tamil Nadu,Coimbatore,2014,43,7,35,104,361,32,0,4996,11.0018115,76.9628425,1
Tamil Nadu,Coimbatore City,2014,21,5,14,123,353,25,0,4281,11.0018115,76.9628425,0
Tamil Nadu,Cuddalore,2014,50,14,83,16,476,250,5,9442,11.5202071,79.3396356,1
Tamil Nadu,Dharmapuri,2014,43,11,139,31,282,116,2,4354,12.1456131,78.1132217,0
Tamil Nadu,Dindigul,2014,61,15,113,67,210,77,4,6250,10.4256897,77.815664,1
Tamil Nadu,Erode,2014,53,0,30,44,298,27,0,4370,11.4905282,77.3505274,0
Tamil Nadu,Kanchipuram,2014,66,16,14,24,466,119,2,8066,12.9647163,79.9839686,1
Tamil Nadu,Kanyakumari,2014,41,7,17,75,266,0,2,4041,8.079252,77.5499338,0
Tamil Nadu,Karur,2014,20,1,15,16,135,43,1,2241,10.8217671,78.3828654,0
Tamil Nadu,Krishnagiri,2014,59,13,73,53,301,141,4,5095,12.5152075,78.0093769,1
Tamil Nadu,Madurai,2014,67,37,200,163,508,210,5,8212,9.9261153,78.1140983,1
Tamil Nadu,Madurai City,2014,33,6,27,118,576,23,1,3226,9.9147463,78.1421636,0
Tamil Nadu,Nagapattinam,2014,36,16,40,48,166,73,0,4386,10.6026203,79.7619348,0
Tamil Nadu,Namakkal,2014,35,0,27,31,130,44,0,4003,11.3033889,78.118604,0
Tamil Nadu,Nilgiris,2014,7,6,5,3,44,11,0,1199,11.4449997,76.69752,0
Tamil Nadu,Perambalur,2014,15,7,4,14,62,22,1,1770,11.2902641,78.9300404,0
Tamil Nadu,Pudukottai,2014,34,3,54,18,113,38,2,3720,10.3826515,78.8191259,0
Tamil Nadu,Ramnathapuram,2014,45,8,37,25,141,65,3,3819,9.5,78.5,0
Tamil Nadu,Railway Chennai,2014,3,1,0,20,343,11,0,637,13.0783583,80.2611685,0
Tamil Nadu,Railway Trichy,2014,0,0,0,15,111,5,0,229,10.8184917,78.6895379,0
Tamil Nadu,Salem,2014,58,6,48,24,142,91,7,4696,11.6469616,78.2106958,1
Tamil Nadu,Salem City,2014,36,5,23,59,261,44,1,4504,11.6550532,78.1549562,0
Tamil Nadu,Sivagangai,2014,29,15,46,86,182,71,3,3738,9.9650599,78.7204283,0
Tamil Nadu,Thanjavur,2014,70,8,56,68,296,158,0,6225,10.659037,79.2014278,1
Tamil Nadu,Theni,2014,47,8,45,38,207,75,6,4554,9.8692558,77.4222974,0
Tamil Nadu,Thiruvallur,2014,37,8,9,25,169,144,4,4037,13.2537619,80.0562572,0
Tamil Nadu,Thiruvannamalai,2014,47,16,65,7,278,115,6,4411,9.539867,77.6197904,0
Tamil Nadu,Thiruvarur,2014,26,2,27,36,176,34,1,4041,10.6878621,79.4979437,0
Tamil Nadu,Tiruppur,2014,36,6,60,61,220,33,3,4049,10.7915267,77.5325466,0
Tamil Nadu,Tiruppur City,2014,20,5,24,55,338,22,0,2490,11.1017815,77.345192,0
Tamil Nadu,Trichy,2014,39,8,30,34,140,66,2,4688,10.8071144,78.6880939,1
Tamil Nadu,Trichy City,2014,24,3,7,24,307,10,0,3074,12.737753,80.0014634,0
Tamil Nadu,Vellore,2014,92,12,97,31,750,11,3,10492,12.9021849,79.061104,1
Tamil Nadu,Villupuram,2014,68,38,138,30,466,355,7,9643,11.9398285,79.4945645,1
Tamil Nadu,Virudhunagar,2014,49,13,23,58,264,75,3,4285,9.4926289,77.8631831,0
Tamil Nadu,Total,2014,1805,455,1746,1969,11969,2784,95,193200,13.0773865,80.2107125,1
Telangana,Adilabad,2014,101,42,46,7,505,38,16,6036,19.6759452,78.5339895,1
Telangana,Cyberabad,2014,144,139,165,62,4182,51,48,19311,17.4508058,78.3834535,1
Telangana,Hyderabad City,2014,118,126,374,58,4266,57,22,18940,17.4534764,78.3943669,1
Telangana,Karimnagar,2014,109,66,106,36,735,87,34,9382,18.4348122,79.1328042,1
Telangana,Khammam,2014,76,102,73,15,746,94,18,11022,17.2465351,80.1500326,1
Telangana,Mahaboob Nagar,2014,240,169,63,23,1112,105,30,7533,16.3890619,78.027085,1
Telangana,Medak,2014,130,60,59,20,787,39,34,6931,17.9375095,78.211745,1
Telangana,Nalgonda,2014,114,126,95,30,722,129,23,9254,17.0504406,79.2669235,1
Telangana,Nizamabad,2014,122,36,57,21,712,46,25,7053,18.6732693,78.0978477,1
Telangana,Ranga Reddy,2014,77,51,35,12,183,2,10,2309,17.1333954,78.3970979,0
Telangana,Secunderabad Railway,2014,4,2,1,3,760,0,0,860,17.4346043,78.5009711,0
Telangana,Warangal,2014,47,41,45,15,302,83,17,4407,17.9820644,79.5970954,0
Telangana,Warangal Urban,2014,26,19,33,6,330,35,12,3792,18.0458479,79.6115471,0
Telangana,Total,2014,1308,979,1152,308,15342,766,289,106830,17.4424014,78.5325161,1
Tripura,Dhalai,2014,20,34,13,2,11,4,1,363,23.8253158,91.9732227,0
Tripura,Gomati,2014,15,32,23,4,53,11,9,825,23.4987407,91.2999111,0
Tripura,North,2014,10,26,15,6,33,6,6,510,24.0921476,92.2451214,0
Tripura,Sipahijala,2014,19,19,15,3,45,16,1,725,23.5307446,91.3015654,0
Tripura,South,2014,17,20,11,5,22,13,4,678,23.1708278,91.638817,0
Tripura,Unakoti,2014,8,24,11,4,22,19,1,401,24.1909849,92.0460483,0
Tripura,West,2014,41,69,33,19,151,19,3,1650,23.9153329,91.3879341,0
Uttar Pradesh,Agra,2014,178,77,463,218,3512,413,87,9518,27.1752554,78.0098161,1
Uttar Pradesh,Aligarh,2014,179,112,471,242,2297,436,69,8793,27.8761073,78.1358153,1
Uttar Pradesh,Allahabad,2014,132,109,330,125,2245,129,53,9909,25.4381302,81.8338005,1
Uttar Pradesh,Ambedkar Nagar,2014,24,20,59,13,86,37,11,1323,26.4045941,82.6065154,0
Uttar Pradesh,Amethi,2014,36,27,115,20,113,43,15,1522,26.3462741,81.6252039,0
Uttar Pradesh,Amroha,2014,60,35,120,44,399,44,23,2826,28.7952632,78.3436244,0
Uttar Pradesh,Auraiya,2014,34,21,99,14,165,20,34,1789,26.6558215,79.5160757,0
Uttar Pradesh,Azamgarh,2014,68,42,183,73,387,203,34,2881,26.023639,83.0293105,0
Uttar Pradesh,Badaun,2014,120,71,164,53,331,9,56,2919,28.0649367,79.043832,0
Uttar Pradesh,Baghpat,2014,83,35,121,45,332,56,14,1844,29.0374779,77.3062737,0
Uttar Pradesh,Bahraich,2014,53,68,202,14,258,73,51,2249,27.7343823,81.47654,0
Uttar Pradesh,Ballia,2014,36,21,116,28,287,113,24,1674,25.8749595,84.1210329,0
Uttar Pradesh,Balrampur,2014,28,19,67,4,68,22,13,549,27.4476988,82.3956245,0
Uttar Pradesh,Banda,2014,42,71,151,25,240,86,39,1948,25.4438537,80.5595237,0
Uttar Pradesh,Barabanki,2014,57,35,65,17,113,3,25,2471,26.9421406,81.3856087,0
Uttar Pradesh,Bareilly,2014,132,76,337,80,886,153,74,6589,28.4582345,79.4047452,1
Uttar Pradesh,Basti,2014,31,15,53,11,85,20,15,752,26.8387084,82.5350919,0
Uttar Pradesh,Bijnor,2014,84,80,184,59,434,77,26,3475,29.4074203,78.4821406,0
Uttar Pradesh,Bulandshahar,2014,171,82,291,122,841,158,55,4775,28.5242541,77.5995188,1
Uttar Pradesh,Chitrakoot,2014,33,23,46,6,81,12,23,988,25.217139,81.1045927,0
Uttar Pradesh,Deoria,2014,42,35,137,13,182,81,31,1645,26.4239911,83.7638578,0
Uttar Pradesh,Etah,2014,65,54,172,63,399,110,42,2783,27.5550357,78.5992221,0
Uttar Pradesh,Etawah,2014,55,30,136,113,506,26,31,2721,26.7155629,79.0917098,0
Uttar Pradesh,Faizabad,2014,32,37,120,25,295,28,13,2426,26.7807986,82.1486589,0
Uttar Pradesh,Fatehgarh,2014,58,19,148,21,230,34,39,2151,27.3700748,79.620752,0
Uttar Pradesh,Fatehpur,2014,55,58,131,21,217,42,43,2559,25.8348023,80.9154547,0
Uttar Pradesh,Firozabad,2014,140,61,284,92,687,201,55,4222,27.1941954,78.4604956,0
Uttar Pradesh,Ghaziabad,2014,166,118,482,114,3392,70,38,10088,28.7749966,77.4586967,1
Uttar Pradesh,Ghazipur,2014,64,24,128,32,260,113,31,1945,25.6034863,83.5075888,0
Uttar Pradesh,Gonda,2014,45,37,139,18,180,48,28,2021,27.1103723,81.9238906,0
Uttar Pradesh,Gorakhpur,2014,113,92,299,89,804,193,58,4537,26.6677977,83.3642334,0
Uttar Pradesh,Hamirpur,2014,31,29,68,18,83,34,26,981,25.75,80.0,0
Uttar Pradesh,Hapur,2014,42,46,82,35,493,40,16,1841,28.7166767,77.890433,0
Uttar Pradesh,Hardoi,2014,79,39,177,13,275,36,40,2981,27.3369978,80.0998232,0
Uttar Pradesh,Hathras,2014,72,60,146,56,339,112,24,2280,27.5724324,78.1116209,0
Uttar Pradesh,Jalaun,2014,36,12,64,12,117,11,30,856,26.1048633,79.3919136,0
Uttar Pradesh,Jaunpur,2014,55,50,133,58,297,107,47,2352,25.7967065,82.4888992,0
Uttar Pradesh,Jhansi,2014,68,28,112,22,316,65,33,1985,25.529855,78.6527802,0
Uttar Pradesh,Kannauj,2014,39,22,100,8,147,10,31,2103,26.9986675,79.6927946,0
Uttar Pradesh,Kanpur Dehat,2014,46,20,157,24,121,40,35,2111,26.458564,79.8548052,0
Uttar Pradesh,Kanpur Nagar,2014,137,78,442,139,1536,233,73,8641,26.4410107,80.2652803,1
Uttar Pradesh,Kasganj,2014,20,19,102,7,192,41,29,1232,27.7888528,78.8229701,0
Uttar Pradesh,Kaushambi,2014,40,14,92,13,154,23,27,1945,25.5342456,81.4493567,0
Uttar Pradesh,Lalitpur,2014,27,25,34,15,59,26,12,962,24.6999688,78.51862,0
Uttar Pradesh,Lucknow,2014,132,68,377,60,3192,174,52,15107,26.8381,80.9346001,1
Uttar Pradesh,Maharajganj,2014,33,32,103,14,61,41,26,1162,26.4710847,81.1807046,0
Uttar Pradesh,Mahoba,2014,27,22,58,18,57,26,14,814,25.3615939,79.706011,0
Uttar Pradesh,Mainpuri,2014,57,23,142,34,476,85,37,2469,27.2093072,79.0625369,0
Uttar Pradesh,Mathura,2014,86,73,191,89,1159,190,48,4779,27.4955539,77.6855554,1
Uttar Pradesh,Mau,2014,28,25,88,23,226,93,16,1476,26.0390905,83.4985846,0
Uttar Pradesh,Meerut,2014,226,93,438,341,3550,294,53,10073,29.0018557,77.7679671,1
Uttar Pradesh,Mirzapur,2014,25,19,12,5,45,1,26,780,24.9316896,82.6280163,0
Uttar Pradesh,Moradabad,2014,90,89,190,66,788,78,36,4026,28.8796553,78.8095335,0
Uttar Pradesh,Muzaffarnagar,2014,137,37,242,95,800,136,17,3952,29.4496979,77.7429333,0
Uttar Pradesh,Pilibhit,2014,54,69,128,29,200,13,25,2916,28.4947158,80.1076122,0
Uttar Pradesh,Pratapgarh,2014,72,68,248,53,431,200,21,4128,25.75,81.75,0
Uttar Pradesh,Rampur,2014,54,34,100,25,344,34,18,1950,28.7934728,79.1845806,0
Uttar Pradesh,Saharanpur,2014,92,73,273,110,793,205,28,4184,29.9856799,77.5040646,0
Uttar Pradesh,Sambhal,2014,73,48,146,45,293,68,26,2087,28.4271928,78.5564546,0
Uttar Pradesh,Shahjahanpur,2014,88,83,210,62,281,42,61,3106,27.9128583,79.7476254,0
Uttar Pradesh,Shamli,2014,67,32,100,54,329,103,18,1674,29.4811508,77.2901344,0
Uttar Pradesh,Sitapur,2014,91,74,216,40,384,65,46,3923,27.5026748,80.8335139,0
Uttar Pradesh,Sonbhadra,2014,32,26,20,2,77,3,6,753,24.4148159,83.0637517,0
Uttar Pradesh,Unnao,2014,77,69,268,44,334,46,31,3438,26.5673264,80.6198193,0
Uttar Pradesh,Varanasi,2014,52,47,166,46,706,79,42,3900,25.3356491,83.0076292,0
Uttarakhand,Almora,2014,4,6,40,1,8,3,1,139,29.702651,79.4326318,0
Uttarakhand,Bageshwar,2014,5,3,0,0,6,0,0,77,30.0087902,79.9280183,0
Uttarakhand,Chamoli,2014,3,4,7,1,8,3,1,126,30.4985956,79.6190537,0
Uttarakhand,Champawat,2014,2,8,0,0,6,4,0,96,29.235032,80.1023068,0
Uttarakhand,Dehradun,2014,26,55,69,39,439,99,10,2178,30.3255646,78.0436813,0
Uttarakhand,Haridwar,2014,73,73,241,70,562,160,0,2505,29.9123514,78.0087178,0
Uttarakhand,Nainital,2014,28,36,160,5,157,47,5,1095,29.294995,79.4162511,0
Uttarakhand,Pauri Garhwal,2014,6,8,62,3,37,11,7,278,29.8473168,78.7070479,0
Uttarakhand,Pithoragarh,2014,4,8,11,2,10,12,3,117,29.585871,80.215167,0
Uttarakhand,Tehri Garhwal,2014,6,7,13,1,19,5,0,122,30.4658181,78.4837349,0
Uttarakhand,Uttarkashi,2014,2,9,15,1,7,8,0,92,30.9635733,78.6362521,0
West Bengal,North 24 Parganas,2014,141,227,728,42,1354,330,66,14867,22.6926815,88.6625795,1
West Bengal,South 24 Parganas,2014,248,341,749,43,1523,2164,53,21049,22.1776733,88.5307853,1
West Bengal,Alipurduar,2014,49,118,176,2,654,10,2,3355,26.4851573,89.5246926,0
West Bengal,Bankura,2014,75,79,71,32,241,162,18,3049,23.132377,87.2081925,0
West Bengal,Barrackpur PC,2014,86,77,354,13,1220,73,21,8087,22.9631014,88.4278003,1
West Bengal,Bidhannagar PC,2014,18,24,102,8,568,63,6,3014,22.590425,88.41692,0
West Bengal,Birbhum,2014,110,82,125,43,385,235,8,3749,24.0621532,87.6982823,0
West Bengal,Burdwan,2014,133,121,241,28,732,269,12,7694,23.2495714,87.8681751,1
West Bengal,Coochbehar,2014,80,141,416,8,387,59,21,5142,26.340623,89.4812163,1
West Bengal,Dakshin Dinajpur,2014,44,64,206,4,200,10,13,2372,25.385807,88.5063362,0
West Bengal,Darjeeling,2014,29,60,65,9,368,7,0,2418,27.0377554,88.263176,0
West Bengal,Hooghly,2014,125,110,355,20,1076,376,34,8858,22.9099403,88.0120825,1
West Bengal,Howrah PC,2014,43,43,202,29,1126,32,4,6273,22.5736296,88.3251045,1
West Bengal,Jalpaiguri,2014,57,129,218,9,764,11,16,3832,26.6262805,88.7334485,0
West Bengal,Kolkata,2014,83,154,423,33,4623,316,12,26668,22.5726459,88.3638953,1
West Bengal,Malda,2014,102,252,340,26,429,46,31,6432,25.0057449,88.1398483,1
West Bengal,Murshidabad,2014,158,474,596,19,947,84,36,14762,24.1745993,88.2721335,1
West Bengal,Nadia,2014,166,204,463,41,1017,133,50,11790,23.4847374,88.5567067,1
West Bengal,Paschim Medinipur,2014,104,91,208,47,745,243,21,5791,22.3600119,87.4111505,1
West Bengal,Purulia,2014,72,72,54,17,190,71,4,1800,23.2020967,86.3228988,0
West Bengal,Siliguri PC,2014,46,72,154,15,1125,6,2,4623,26.7164127,88.4309916,0
West Bengal,Uttar Dinajpur,2014,90,187,350,63,721,29,9,8312,25.8721428,87.961986,1
West Bengal,Total,2014,2370,3409,7285,606,22915,5509,504,193048,22.6367116,88.3524277,1
A&N Islands,South Andaman,2014,5,19,14,2,35,10,3,556,12.7720659,92.6556293,0
A&N Islands,North & Middle Andaman,2014,2,11,8,0,10,0,0,159,13.2277143,92.9394925,0
Chandigarh,Chandigarh,2014,24,59,187,65,1260,33,2,3221,30.7334421,76.7797143,0
Daman & Diu,Daman,2014,6,2,10,5,29,4,0,198,20.4169701,72.833173,0
Daman & Diu,Diu,2014,1,0,0,0,2,0,0,35,20.7260366,70.9843583,0
Lakshadweep,Lakshadweep,2014,0,1,0,0,15,9,0,81,10.8132489,73.6804621,0
Puducherry,Karaikal,2014,6,3,1,1,33,5,0,671,10.91571,79.8375761,0
Puducherry,Puducherry,2014,19,7,12,5,391,34,1,2913,11.9340568,79.8306447,0
